{
  "type": "FeatureCollection",
  "features": [
    {
      "type": "Feature",
      "properties": {
        "marker-color": "#7e7e7e",
        "marker-size": "medium",
        "marker-symbol": "swimming",
        "group": "sport",
        "name_ru": "Учебно-спортивный комплекс",
        "name_en": "Sport complex"
      },
      "geometry": {
        "type": "Point",
        "coordinates": [
          61.36794984340667,
          55.15765875519376
        ]
      }
    },
    {
      "type": "Feature",
      "properties": {
        "marker-color": "#7e7e7e",
        "marker-size": "medium",
        "marker-symbol": "bus",
        "group": "transport",
        "name_ru": "ПКиО",
        "name_en": "Park of culture",
        "description_ru": "Автобус 2, 4, 16, 81, 83, 123;<br>троллейбус 1, 8, 14, 19",
        "description_en": "Bus 2, 4, 16, 81, 83, 123;<br>trolleybus 1, 8, 14, 19"
      },
      "geometry": {
        "type": "Point",
        "coordinates": [
          61.365541219711304,
          55.15918499667768
        ]
      }
    },
    {
      "type": "Feature",
      "properties": {
        "marker-color": "#7e7e7e",
        "marker-size": "medium",
        "marker-symbol": "bicycle",
        "group": "sport",
        "name_ru": "Прокат велосипедов",
        "name_en": "Bicycle rental"
      },
      "geometry": {
        "type": "Point",
        "coordinates": [
          61.36241376399993,
          55.158654802943396
        ]
      }
    },
    {
      "type": "Feature",
      "properties": {
        "marker-color": "#7e7e7e",
        "marker-size": "medium",
        "marker-symbol": "shop",
        "group": "food",
        "name": "SPAR"
      },
      "geometry": {
        "type": "Point",
        "coordinates": [
          61.363733410835266,
          55.15970292479154
        ]
      }
    },
    {
      "type": "Feature",
      "properties": {
        "marker-color": "#7e7e7e",
        "marker-size": "medium",
        "marker-symbol": "skiing",
        "name_ru": "Лыжная база",
        "name_en": "Skiing base",
        "group": "sport"
      },
      "geometry": {
        "type": "Point",
        "coordinates": [
          61.36087954044341,
          55.15482984394384
        ]
      }
    }
  ]
}